{
"type": "FeatureCollection",
"name": "patrickkalonde",
"crs": { "type": "name", "properties": { "name": "urn:ogc:def:crs:OGC:1.3:CRS84" } },
"features": [
{ "type": "Feature", "properties": { "Name": "drone_imagery_new", "description": null, "timestamp": null, "begin": null, "end": null, "altitudeMode": null, "tessellate": -1, "extrude": 0, "visibility": -1, "drawOrder": null, "icon": null }, "geometry": { "type": "Point", "coordinates": [ 34.113682570199657, -12.51655076455639, 0.0 ] } },
{ "type": "Feature", "properties": { "Name": "drone_imagery_8", "description": "<img style=\"max-width:500px;\" src=\"files/drone_imagery_8.jpg\">", "timestamp": null, "begin": null, "end": null, "altitudeMode": null, "tessellate": -1, "extrude": 0, "visibility": -1, "drawOrder": null, "icon": null }, "geometry": { "type": "Point", "coordinates": [ 34.112148862283917, -12.514725119540451, 0.0 ] } },
{ "type": "Feature", "properties": { "Name": "Drone_bridge1", "description": null, "timestamp": null, "begin": null, "end": null, "altitudeMode": null, "tessellate": -1, "extrude": 0, "visibility": -1, "drawOrder": null, "icon": null }, "geometry": { "type": "Point", "coordinates": [ 34.114403927873937, -12.51590781337862, 0.0 ] } },
{ "type": "Feature", "properties": { "Name": "drone_bridge3", "description": null, "timestamp": null, "begin": null, "end": null, "altitudeMode": null, "tessellate": -1, "extrude": 0, "visibility": -1, "drawOrder": null, "icon": null }, "geometry": { "type": "Point", "coordinates": [ 34.112654720809701, -12.51224247851618, 0.0 ] } },
{ "type": "Feature", "properties": { "Name": "drone_lodge", "description": null, "timestamp": null, "begin": null, "end": null, "altitudeMode": null, "tessellate": -1, "extrude": 0, "visibility": -1, "drawOrder": null, "icon": null }, "geometry": { "type": "Point", "coordinates": [ 34.113100557162547, -12.51192994888023, 0.0 ] } },
{ "type": "Feature", "properties": { "Name": "drone_light2", "description": null, "timestamp": null, "begin": null, "end": null, "altitudeMode": null, "tessellate": -1, "extrude": 0, "visibility": -1, "drawOrder": null, "icon": null }, "geometry": { "type": "Point", "coordinates": [ 34.113751820491338, -12.5154850514747, 0.0 ] } },
{ "type": "Feature", "properties": { "Name": "image1", "description": null, "timestamp": null, "begin": null, "end": null, "altitudeMode": null, "tessellate": -1, "extrude": 0, "visibility": -1, "drawOrder": null, "icon": null }, "geometry": { "type": "Point", "coordinates": [ 34.114611598950987, -12.515152754330471, 0.0 ] } },
{ "type": "Feature", "properties": { "Name": "not_sure_bridge_people", "description": null, "timestamp": null, "begin": null, "end": null, "altitudeMode": null, "tessellate": -1, "extrude": 0, "visibility": -1, "drawOrder": null, "icon": null }, "geometry": { "type": "Point", "coordinates": [ 34.113729373773737, -12.51447279344784, 0.0 ] } },
{ "type": "Feature", "properties": { "Name": "notsure_road_damage1", "description": null, "timestamp": null, "begin": null, "end": null, "altitudeMode": null, "tessellate": -1, "extrude": 0, "visibility": -1, "drawOrder": null, "icon": null }, "geometry": { "type": "Point", "coordinates": [ 34.105446441042218, -12.47587235246311, 0.0 ] } },
{ "type": "Feature", "properties": { "Name": "drone_imagery_7", "description": null, "timestamp": null, "begin": null, "end": null, "altitudeMode": null, "tessellate": -1, "extrude": 0, "visibility": -1, "drawOrder": null, "icon": null }, "geometry": { "type": "Point", "coordinates": [ 34.112723966157738, -12.51476433324191, 0.0 ] } },
{ "type": "Feature", "properties": { "Name": "drone_imagery_3", "description": "<img style=\"max-width:500px;\" src=\"files/drone_imagery_3.jpg\">", "timestamp": null, "begin": null, "end": null, "altitudeMode": null, "tessellate": -1, "extrude": 0, "visibility": -1, "drawOrder": null, "icon": null }, "geometry": { "type": "Point", "coordinates": [ 34.11281102003958, -12.51446354228875, 0.0 ] } }
]
}
