{
"type": "FeatureCollection",
"name": "preciousmastala",
"crs": { "type": "name", "properties": { "name": "urn:ogc:def:crs:OGC:1.3:CRS84" } },
"features": [
{ "type": "Feature", "properties": { "Name": "drone_bridge3", "description": null, "timestamp": null, "begin": null, "end": null, "altitudeMode": null, "tessellate": -1, "extrude": 0, "visibility": -1, "drawOrder": null, "icon": null }, "geometry": { "type": "Point", "coordinates": [ 34.113105868577279, -12.512305762636309, 0.0 ] } },
{ "type": "Feature", "properties": { "Name": "drone_imagery_5", "description": null, "timestamp": null, "begin": null, "end": null, "altitudeMode": null, "tessellate": -1, "extrude": 0, "visibility": -1, "drawOrder": null, "icon": null }, "geometry": { "type": "Point", "coordinates": [ 34.113071750614367, -12.5150816418899, 0.0 ] } },
{ "type": "Feature", "properties": { "Name": "drone_bridge1", "description": null, "timestamp": null, "begin": null, "end": null, "altitudeMode": null, "tessellate": -1, "extrude": 0, "visibility": -1, "drawOrder": null, "icon": null }, "geometry": { "type": "Point", "coordinates": [ 34.114531248745422, -12.515858984617481, 0.0 ] } },
{ "type": "Feature", "properties": { "Name": "lodge_side", "description": null, "timestamp": null, "begin": null, "end": null, "altitudeMode": null, "tessellate": -1, "extrude": 0, "visibility": -1, "drawOrder": null, "icon": null }, "geometry": { "type": "Point", "coordinates": [ 34.113134661495202, -12.511793923890179, 0.0 ] } },
{ "type": "Feature", "properties": { "Name": "drone_light2", "description": null, "timestamp": null, "begin": null, "end": null, "altitudeMode": null, "tessellate": -1, "extrude": 0, "visibility": -1, "drawOrder": null, "icon": null }, "geometry": { "type": "Point", "coordinates": [ 34.113678823730233, -12.51558247487702, 0.0 ] } },
{ "type": "Feature", "properties": { "Name": "drone_lodge", "description": null, "timestamp": null, "begin": null, "end": null, "altitudeMode": null, "tessellate": -1, "extrude": 0, "visibility": -1, "drawOrder": null, "icon": null }, "geometry": { "type": "Point", "coordinates": [ 34.113110574407607, -12.512013908087789, 0.0 ] } },
{ "type": "Feature", "properties": { "Name": "drone_imagery_8", "description": null, "timestamp": null, "begin": null, "end": null, "altitudeMode": null, "tessellate": -1, "extrude": 0, "visibility": -1, "drawOrder": null, "icon": null }, "geometry": { "type": "Point", "coordinates": [ 34.112174169373958, -12.5145247643621, 0.0 ] } },
{ "type": "Feature", "properties": { "Name": "drone_imagery_new", "description": null, "timestamp": null, "begin": null, "end": null, "altitudeMode": null, "tessellate": -1, "extrude": 0, "visibility": -1, "drawOrder": null, "icon": null }, "geometry": { "type": "Point", "coordinates": [ 34.113856755314067, -12.516088668862951, 0.0 ] } },
{ "type": "Feature", "properties": { "Name": "drone_imagery_4", "description": null, "timestamp": null, "begin": null, "end": null, "altitudeMode": null, "tessellate": -1, "extrude": 0, "visibility": -1, "drawOrder": null, "icon": null }, "geometry": { "type": "Point", "coordinates": [ 34.11203684745972, -12.51321845854082, 0.0 ] } },
{ "type": "Feature", "properties": { "Name": "drone_magery_3", "description": null, "timestamp": null, "begin": null, "end": null, "altitudeMode": null, "tessellate": -1, "extrude": 0, "visibility": -1, "drawOrder": null, "icon": null }, "geometry": { "type": "Point", "coordinates": [ 34.112620376933819, -12.51409997945653, 0.0 ] } },
{ "type": "Feature", "properties": { "Name": "drone_imagery_6", "description": null, "timestamp": null, "begin": null, "end": null, "altitudeMode": null, "tessellate": -1, "extrude": 0, "visibility": -1, "drawOrder": null, "icon": null }, "geometry": { "type": "Point", "coordinates": [ 34.112103649806308, -12.513791910998309, 0.0 ] } },
{ "type": "Feature", "properties": { "Name": "drone_imagery_7", "description": null, "timestamp": null, "begin": null, "end": null, "altitudeMode": null, "tessellate": -1, "extrude": 0, "visibility": -1, "drawOrder": null, "icon": null }, "geometry": { "type": "Point", "coordinates": [ 34.112645070695692, -12.51452522203528, 0.0 ] } },
{ "type": "Feature", "properties": { "Name": "drone_bridge_lowquality", "description": null, "timestamp": null, "begin": null, "end": null, "altitudeMode": null, "tessellate": -1, "extrude": 0, "visibility": -1, "drawOrder": null, "icon": null }, "geometry": { "type": "Point", "coordinates": [ 34.114380522063769, -12.51587849022895, 0.0 ] } },
{ "type": "Feature", "properties": { "Name": "image1", "description": null, "timestamp": null, "begin": null, "end": null, "altitudeMode": null, "tessellate": -1, "extrude": 0, "visibility": -1, "drawOrder": null, "icon": null }, "geometry": { "type": "Point", "coordinates": [ 34.112562092823417, -12.51271061274435, 0.0 ] } }
]
}
